{
  "type": "FeatureCollection",
  "features": [
    {
      "type": "Feature",
      "geometry": {
        "type": "Point",
        "coordinates": [
          14.2612364,
          48.2386683
        ]
      },
      "properties": {
        "title": "Brauerei Hofstetten",
        "description": "4113 St. Martin // Adsdorf 5 (Mühlviertel)",
        "city": "St. Martin",
        "state": "Oberösterreich",
        "web": "www.hofstetten.at",
        "type": "brewery",
        "marker-color": "#ffd700",
        "marker-size": "small"
      }
    },
    {
      "type": "Feature",
      "geometry": {
        "type": "Point",
        "coordinates": [
          13.7331661,
          48.5040454
        ]
      },
      "properties": {
        "title": "Trappistenbrauerei Stift Engelszell",
        "description": "4090 Engelhartszell // Stiftstraße 6  (Innviertel)",
        "city": "Engelhartszell",
        "state": "Oberösterreich",
        "web": "www.stift-engelszell.at",
        "type": "brewery",
        "marker-color": "#ffd700",
        "marker-size": "small"
      }
    },
    {
      "type": "Feature",
      "geometry": {
        "type": "Point",
        "coordinates": [
          13.6040034,
          47.9461563
        ]
      },
      "properties": {
        "title": "Argus-Bräu",
        "description": "4861 Schörfling (am Attersee) // Oberachmanstraße 21",
        "city": "Schörfling (am Attersee)",
        "state": "Oberösterreich",
        "web": "www.argus-braeu.at",
        "type": "brewery",
        "marker-color": "#ffd700",
        "marker-size": "small"
      }
    },
    {
      "type": "Feature",
      "geometry": {
        "type": "Point",
        "coordinates": [
          13.4199273435388,
          47.993067
        ]
      },
      "properties": {
        "title": "Brauerei Aspach (Starzinger)",
        "description": "4890 Frankenmarkt // Hauptstraße 23",
        "city": "Frankenmarkt",
        "state": "Oberösterreich",
        "web": null,
        "type": "brewery",
        "marker-color": "#ffd700",
        "marker-size": "small"
      }
    },
    {
      "type": "Feature",
      "geometry": {
        "type": "Point",
        "coordinates": [
          13.4199273435388,
          47.993067
        ]
      },
      "properties": {
        "title": "Brauerei Bräu am Berg (Starzinger)",
        "description": "4890 Frankenmarkt // Bahnhofstraße 1",
        "city": "Frankenmarkt",
        "state": "Oberösterreich",
        "web": null,
        "type": "brewery",
        "marker-color": "#ffd700",
        "marker-size": "small"
      }
    },
    {
      "type": "Feature",
      "geometry": {
        "type": "Point",
        "coordinates": [
          13.4540582,
          47.9092541
        ]
      },
      "properties": {
        "title": "Brauerei Attersee",
        "description": "4881 Straß (i. Attergau) // Straß 8",
        "city": "Straß (i. Attergau)",
        "state": "Oberösterreich",
        "web": "www.brauerei-attersee.at",
        "type": "brewery",
        "marker-color": "#ffd700",
        "marker-size": "small"
      }
    },
    {
      "type": "Feature",
      "geometry": {
        "type": "Point",
        "coordinates": [
          14.1025205,
          48.5674914
        ]
      },
      "properties": {
        "title": "Brauerei Bachner",
        "description": "4170 St. Stefan am Walde // Unterriedl 4",
        "city": "St. Stefan am Walde",
        "state": "Oberösterreich",
        "web": null,
        "type": "brewery",
        "marker-color": "#ffd700",
        "marker-size": "small"
      }
    },
    {
      "type": "Feature",
      "geometry": {
        "type": "Point",
        "coordinates": [
          13.5661129,
          48.0924656
        ]
      },
      "properties": {
        "title": "Brauerei Pachinger",
        "description": "4843 Ampflwang // Vorderschlagen 19",
        "city": "Ampflwang",
        "state": "Oberösterreich",
        "web": "www.pfeiffis-braeu.at",
        "type": "brewery",
        "marker-color": "#ffd700",
        "marker-size": "small"
      }
    },
    {
      "type": "Feature",
      "geometry": {
        "type": "Point",
        "coordinates": [
          14.1921444,
          48.3235801
        ]
      },
      "properties": {
        "title": "Dörnbacher Floriani-Bräu",
        "description": "4061 Wilhering // Dörnbacherstraße 132",
        "city": "Wilhering",
        "state": "Oberösterreich",
        "web": "www.florianibraeu.at",
        "type": "brewery",
        "marker-color": "#ffd700",
        "marker-size": "small"
      }
    },
    {
      "type": "Feature",
      "geometry": {
        "type": "Point",
        "coordinates": [
          13.9997079,
          48.4842345
        ]
      },
      "properties": {
        "title": "Neufeldner Biobrauerei",
        "description": "4120 Neufelden // Bräuhausgasse 3",
        "city": "Neufelden",
        "state": "Oberösterreich",
        "web": "www.biobrauerei.at",
        "type": "brewery",
        "marker-color": "#ffd700",
        "marker-size": "small"
      }
    },
    {
      "type": "Feature",
      "geometry": {
        "type": "Point",
        "coordinates": [
          14.5823796,
          48.27415
        ]
      },
      "properties": {
        "title": "Schwertberger Bräu",
        "description": "4311 Schwertberg // Ing. Schmiedl-Straße 7",
        "city": "Schwertberg",
        "state": "Oberösterreich",
        "web": null,
        "type": "brewery",
        "marker-color": "#ffd700",
        "marker-size": "small"
      }
    },
    {
      "type": "Feature",
      "geometry": {
        "type": "Point",
        "coordinates": [
          14.1025205,
          48.5674914
        ]
      },
      "properties": {
        "title": "Steffinger Brauerei",
        "description": "4170 St. Stefan am Walde // Unterriedl 4",
        "city": "St. Stefan am Walde",
        "state": "Oberösterreich",
        "web": null,
        "type": "brewery",
        "marker-color": "#ffd700",
        "marker-size": "small"
      }
    },
    {
      "type": "Feature",
      "geometry": {
        "type": "Point",
        "coordinates": [
          14.2374246,
          48.2211206
        ]
      },
      "properties": {
        "title": "Trauner Bier",
        "description": "4050 Traun // Madlschenterweg 7",
        "city": "Traun",
        "state": "Oberösterreich",
        "web": "www.traunerbier.at",
        "type": "brewery",
        "marker-color": "#ffd700",
        "marker-size": "small"
      }
    },
    {
      "type": "Feature",
      "geometry": {
        "type": "Point",
        "coordinates": [
          14.5047566,
          48.5112961
        ]
      },
      "properties": {
        "title": "Freistädter Brauhaus",
        "description": "4240 Freistadt // Brauhausstraße 2 (Mühlviertel)",
        "city": "Freistadt",
        "state": "Oberösterreich",
        "web": "www.freistaedter-bier.at",
        "type": "brewery (m)",
        "marker-color": "#0000ff",
        "marker-size": "medium"
      }
    },
    {
      "type": "Feature",
      "geometry": {
        "type": "Point",
        "coordinates": [
          13.9668473,
          48.636892
        ]
      },
      "properties": {
        "title": "Stiftsbrauerei Schlägl",
        "description": "4160 Schlägl // Schlägl 1 (Mühlviertel)",
        "city": "Schlägl",
        "state": "Oberösterreich",
        "web": "www.schlaegl.co.at",
        "type": "brewery (m)",
        "marker-color": "#0000ff",
        "marker-size": "medium"
      }
    },
    {
      "type": "Feature",
      "geometry": {
        "type": "Point",
        "coordinates": [
          13.4318,
          48.4569975
        ]
      },
      "properties": {
        "title": "Brauerei Jos. Baumgartner",
        "description": "4780 Schärding // Franz-Xaver-Brunner-Straße 1 (Innviertel)",
        "city": "Schärding",
        "state": "Oberösterreich",
        "web": "www.brauerei-baumgartner.at",
        "type": "brewery (m)",
        "marker-color": "#0000ff",
        "marker-size": "medium"
      }
    },
    {
      "type": "Feature",
      "geometry": {
        "type": "Point",
        "coordinates": [
          13.826192,
          48.235011
        ]
      },
      "properties": {
        "title": "Brauerei Grieskirchen",
        "description": "4710 Grieskirchen // Stadtplatz 14",
        "city": "Grieskirchen",
        "state": "Oberösterreich",
        "web": "www.grieskirchner.at",
        "type": "brewery (m)",
        "marker-color": "#0000ff",
        "marker-size": "medium"
      }
    },
    {
      "type": "Feature",
      "geometry": {
        "type": "Point",
        "coordinates": [
          13.2320404,
          48.250022
        ]
      },
      "properties": {
        "title": "Privatbrauerei Wurmhöringer",
        "description": "4950 Altheim // Stadtplatz 10/11  (Innviertel)",
        "city": "Altheim",
        "state": "Oberösterreich",
        "web": "www.wurmhoeringer.at",
        "type": "brewery (m)",
        "marker-color": "#0000ff",
        "marker-size": "medium"
      }
    },
    {
      "type": "Feature",
      "geometry": {
        "type": "Point",
        "coordinates": [
          13.2320404,
          48.250022
        ]
      },
      "properties": {
        "title": "Brauerei Raschhofer",
        "description": "4950 Altheim // Braunauer Straße 12",
        "city": "Altheim",
        "state": "Oberösterreich",
        "web": "www.raschhoferbier.at",
        "type": "brewery (m)",
        "marker-color": "#0000ff",
        "marker-size": "medium"
      }
    },
    {
      "type": "Feature",
      "geometry": {
        "type": "Point",
        "coordinates": [
          12.9910444,
          48.0765942
        ]
      },
      "properties": {
        "title": "Brauerei Schnaitl",
        "description": "5142 Eggelsberg // Gundertshausen 9 (Innviertel)",
        "city": "Eggelsberg",
        "state": "Oberösterreich",
        "web": "www.schnaitl.at",
        "type": "brewery (m)",
        "marker-color": "#0000ff",
        "marker-size": "medium"
      }
    },
    {
      "type": "Feature",
      "geometry": {
        "type": "Point",
        "coordinates": [
          14.1228453,
          48.4594449
        ]
      },
      "properties": {
        "title": "Brauerei Vitzthum",
        "description": "5261 Uttendorf // Uttendorf 25 (Innviertel)",
        "city": "Uttendorf",
        "state": "Oberösterreich",
        "web": "www.uttendorf-bier.com",
        "type": "brewery (m)",
        "marker-color": "#0000ff",
        "marker-size": "medium"
      }
    },
    {
      "type": "Feature",
      "geometry": {
        "type": "Point",
        "coordinates": [
          13.922837,
          48.0035141
        ]
      },
      "properties": {
        "title": "Brauerei Schloss Eggenberg",
        "description": "4655 Vorchdorf // Eggenberg 1",
        "city": "Vorchdorf",
        "state": "Oberösterreich",
        "web": "www.schloss-eggenberg.at",
        "type": "brewery (m)",
        "marker-color": "#0000ff",
        "marker-size": "medium"
      }
    },
    {
      "type": "Feature",
      "geometry": {
        "type": "Point",
        "coordinates": [
          13.5031657,
          48.0363053
        ]
      },
      "properties": {
        "title": "Brauerei Zipf (Brau Union)",
        "description": "4871 Zipf // Zipf 22",
        "city": "Zipf",
        "state": "Oberösterreich",
        "web": "www.zipfer.at",
        "type": "berwery (l)",
        "marker-color": "#ff0000",
        "marker-size": "large"
      }
    },
    {
      "type": "Feature",
      "geometry": {
        "type": "Point",
        "coordinates": [
          14.2865628,
          48.3058789
        ]
      },
      "properties": {
        "title": "Brau Union Österreich",
        "description": "4020 Linz // Poschacherstrasse 35",
        "city": "Linz",
        "state": "Oberösterreich",
        "web": "www.brauunion.at",
        "type": "berwery (l)",
        "marker-color": "#ff0000",
        "marker-size": "large"
      }
    },
    {
      "type": "Feature",
      "geometry": {
        "type": "Point",
        "coordinates": [
          14.4845341,
          48.4282728
        ]
      },
      "properties": {
        "title": "Bio-Hofbrauerei Fürst",
        "description": "4212 Neumarkt im Mühlkreis // Möhringdorf 8",
        "city": "Neumarkt im Mühlkreis",
        "state": "Oberösterreich",
        "web": null,
        "type": "brewpub",
        "marker-color": "#ffa500",
        "marker-size": "small"
      }
    },
    {
      "type": "Feature",
      "geometry": {
        "type": "Point",
        "coordinates": [
          14.8967303,
          48.35948
        ]
      },
      "properties": {
        "title": "Bratl Bräu",
        "description": "4372 St. Georgen am Walde // Markt 13",
        "city": "St. Georgen am Walde",
        "state": "Oberösterreich",
        "web": null,
        "type": "brewpub",
        "marker-color": "#ffa500",
        "marker-size": "small"
      }
    },
    {
      "type": "Feature",
      "geometry": {
        "type": "Point",
        "coordinates": [
          14.2645752,
          48.0920742
        ]
      },
      "properties": {
        "title": "Brauhof Goldberg",
        "description": "4521 Schiedlberg // Weichstettenstraße 119",
        "city": "Schiedlberg",
        "state": "Oberösterreich",
        "web": null,
        "type": "brewpub",
        "marker-color": "#ffa500",
        "marker-size": "small"
      }
    },
    {
      "type": "Feature",
      "geometry": {
        "type": "Point",
        "coordinates": [
          13.5356091,
          47.9143904
        ]
      },
      "properties": {
        "title": "Brauerei Kaltenböck",
        "description": "4864 Attersee // Palmsdorf 17",
        "city": "Attersee",
        "state": "Oberösterreich",
        "web": null,
        "type": "brewpub",
        "marker-color": "#ffa500",
        "marker-size": "small"
      }
    },
    {
      "type": "Feature",
      "geometry": {
        "type": "Point",
        "coordinates": [
          14.5383884,
          48.4429634
        ]
      },
      "properties": {
        "title": "Eder-Bräu Bierbuschenschank",
        "description": "4292 Kefermarkt // Netzberg 32",
        "city": "Kefermarkt",
        "state": "Oberösterreich",
        "web": null,
        "type": "brewpub",
        "marker-color": "#ffa500",
        "marker-size": "small"
      }
    },
    {
      "type": "Feature",
      "geometry": {
        "type": "Point",
        "coordinates": [
          12.8303402,
          48.0459363
        ]
      },
      "properties": {
        "title": "Ernstinger Wirt's Bräu",
        "description": "5121 Ostermiething // Ernsting 6",
        "city": "Ostermiething",
        "state": "Oberösterreich",
        "web": null,
        "type": "brewpub",
        "marker-color": "#ffa500",
        "marker-size": "small"
      }
    },
    {
      "type": "Feature",
      "geometry": {
        "type": "Point",
        "coordinates": [
          13.7749232,
          48.0545249
        ]
      },
      "properties": {
        "title": "Gasthausbrauerei Zum Alfons",
        "description": "4690 Schwanenstadt // Bergern 2",
        "city": "Schwanenstadt",
        "state": "Oberösterreich",
        "web": null,
        "type": "brewpub",
        "marker-color": "#ffa500",
        "marker-size": "small"
      }
    },
    {
      "type": "Feature",
      "geometry": {
        "type": "Point",
        "coordinates": [
          14.0244047,
          48.1566957
        ]
      },
      "properties": {
        "title": "Gerstl Bräu",
        "description": "4600 Wels // Freiung 9-11",
        "city": "Wels",
        "state": "Oberösterreich",
        "web": null,
        "type": "brewpub",
        "marker-color": "#ffa500",
        "marker-size": "small"
      }
    },
    {
      "type": "Feature",
      "geometry": {
        "type": "Point",
        "coordinates": [
          13.039506,
          48.253136
        ]
      },
      "properties": {
        "title": "Hausbrauerei Bogner",
        "description": "5280 Braunau am Inn // Haselbach 26",
        "city": "Braunau am Inn",
        "state": "Oberösterreich",
        "web": "www.hausbrauerei-bogner.at",
        "type": "brewpub",
        "marker-color": "#ffa500",
        "marker-size": "small"
      }
    },
    {
      "type": "Feature",
      "geometry": {
        "type": "Point",
        "coordinates": [
          13.4921448,
          48.0680308
        ]
      },
      "properties": {
        "title": "Hofrauerei Preuner",
        "description": "4873 Frankenburg // Vordersteining 5",
        "city": "Frankenburg",
        "state": "Oberösterreich",
        "web": null,
        "type": "brewpub",
        "marker-color": "#ffa500",
        "marker-size": "small"
      }
    },
    {
      "type": "Feature",
      "geometry": {
        "type": "Point",
        "coordinates": [
          14.3289935,
          47.7218417
        ]
      },
      "properties": {
        "title": "Kemmet Bräu",
        "description": "4580 Windischgarsten // Hauptstraße 22",
        "city": "Windischgarsten",
        "state": "Oberösterreich",
        "web": null,
        "type": "brewpub",
        "marker-color": "#ffa500",
        "marker-size": "small"
      }
    },
    {
      "type": "Feature",
      "geometry": {
        "type": "Point",
        "coordinates": [
          13.6049039,
          47.9733296
        ]
      },
      "properties": {
        "title": "Braugasthof Leimer",
        "description": "4860 Lenzing // Atterseestraße 34",
        "city": "Lenzing",
        "state": "Oberösterreich",
        "web": null,
        "type": "brewpub",
        "marker-color": "#ffa500",
        "marker-size": "small"
      }
    },
    {
      "type": "Feature",
      "geometry": {
        "type": "Point",
        "coordinates": [
          14.128766,
          48.0533652
        ]
      },
      "properties": {
        "title": "Sandberg Bräu",
        "description": "4550 Kremsmünster // Sandberg 1",
        "city": "Kremsmünster",
        "state": "Oberösterreich",
        "web": null,
        "type": "brewpub",
        "marker-color": "#ffa500",
        "marker-size": "small"
      }
    },
    {
      "type": "Feature",
      "geometry": {
        "type": "Point",
        "coordinates": [
          14.5383884,
          48.4429634
        ]
      },
      "properties": {
        "title": "Schloßbrauerei Weinberg",
        "description": "4292 Kefermarkt // Weinberg 2",
        "city": "Kefermarkt",
        "state": "Oberösterreich",
        "web": null,
        "type": "brewpub",
        "marker-color": "#ffa500",
        "marker-size": "small"
      }
    },
    {
      "type": "Feature",
      "geometry": {
        "type": "Point",
        "coordinates": [
          14.4191276,
          48.0390046
        ]
      },
      "properties": {
        "title": "Staffelmayr Gutshofbräu",
        "description": "4400 Steyr // Kegelprielstraße 17",
        "city": "Steyr",
        "state": "Oberösterreich",
        "web": null,
        "type": "brewpub",
        "marker-color": "#ffa500",
        "marker-size": "small"
      }
    },
    {
      "type": "Feature",
      "geometry": {
        "type": "Point",
        "coordinates": [
          14.1757273,
          48.3318812
        ]
      },
      "properties": {
        "title": "Thor-Bräu",
        "description": "4100 Ottensheim // Hostauerstraße 2",
        "city": "Ottensheim",
        "state": "Oberösterreich",
        "web": null,
        "type": "brewpub",
        "marker-color": "#ffa500",
        "marker-size": "small"
      }
    },
    {
      "type": "Feature",
      "geometry": {
        "type": "Point",
        "coordinates": [
          14.0581292,
          48.0702992
        ]
      },
      "properties": {
        "title": "Voralpenbräu",
        "description": "4642 Sattledt // Hauptstraße 13",
        "city": "Sattledt",
        "state": "Oberösterreich",
        "web": null,
        "type": "brewpub",
        "marker-color": "#ffa500",
        "marker-size": "small"
      }
    }
  ]
}